[
  { "code": "01", "name": "Adrar", "nameAr": "أدرار", "nameFr": "Adrar", "latitude": "27.874290", "longitude": "-0.293880", "population": 437000, "area": 427368 },
  { "code": "02", "name": "Chlef", "nameAr": "الشلف", "nameFr": "Chlef", "latitude": "36.169000", "longitude": "1.331700", "population": 1021000, "area": 4792 },
  { "code": "03", "name": "Laghouat", "nameAr": "الأغواط", "nameFr": "Laghouat", "latitude": "33.800000", "longitude": "2.865100", "population": 477000, "area": 25105 },
  { "code": "04", "name": "Oum El Bouaghi", "nameAr": "أم البواقي", "nameFr": "Oum El Bouaghi", "latitude": "35.876900", "longitude": "7.113600", "population": 644000, "area": 7768 },
  { "code": "05", "name": "Batna", "nameAr": "باتنة", "nameFr": "Batna", "latitude": "35.555000", "longitude": "6.174400", "population": 1128000, "area": 12048 },
  { "code": "06", "name": "Béjaïa", "nameAr": "بجاية", "nameFr": "Béjaïa", "latitude": "36.750900", "longitude": "5.056700", "population": 915000, "area": 3268 },
  { "code": "07", "name": "Biskra", "nameAr": "بسكرة", "nameFr": "Biskra", "latitude": "34.850000", "longitude": "5.733300", "population": 869000, "area": 21671 },
  { "code": "08", "name": "Béchar", "nameAr": "بشار", "nameFr": "Béchar", "latitude": "31.616700", "longitude": "-2.216700", "population": 322000, "area": 162200 },
  { "code": "09", "name": "Blida", "nameAr": "البليدة", "nameFr": "Blida", "latitude": "36.470000", "longitude": "2.833300", "population": 1008000, "area": 1544 },
  { "code": "10", "name": "Bouira", "nameAr": "البويرة", "nameFr": "Bouira", "latitude": "36.380000", "longitude": "3.900000", "population": 780000, "area": 4393 },
  { "code": "11", "name": "Tamanrasset", "nameAr": "تمنراست", "nameFr": "Tamanrasset", "latitude": "22.785000", "longitude": "5.522800", "population": 198000, "area": 556200 },
  { "code": "12", "name": "Tébessa", "nameAr": "تبسة", "nameFr": "Tébessa", "latitude": "35.404200", "longitude": "8.124100", "population": 657000, "area": 13878 },
  { "code": "13", "name": "Tlemcen", "nameAr": "تلمسان", "nameFr": "Tlemcen", "latitude": "34.878300", "longitude": "-1.315600", "population": 945000, "area": 9061 },
  { "code": "14", "name": "Tiaret", "nameAr": "تيارت", "nameFr": "Tiaret", "latitude": "35.366700", "longitude": "1.316700", "population": 842000, "area": 20186 },
  { "code": "15", "name": "Tizi Ouzou", "nameAr": "تيزي وزو", "nameFr": "Tizi Ouzou", "latitude": "36.716700", "longitude": "4.050000", "population": 1068000, "area": 2957 },
  { "code": "16", "name": "Alger", "nameAr": "الجزائر", "nameFr": "Alger", "latitude": "36.753768", "longitude": "3.058756", "population": 3915811, "area": 809 },
  { "code": "17", "name": "Djelfa", "nameAr": "الجلفة", "nameFr": "Djelfa", "latitude": "34.666700", "longitude": "3.250000", "population": 1274000, "area": 32256 },
  { "code": "18", "name": "Jijel", "nameAr": "جيجل", "nameFr": "Jijel", "latitude": "36.800000", "longitude": "5.766700", "population": 634000, "area": 2577 },
  { "code": "19", "name": "Sétif", "nameAr": "سطيف", "nameFr": "Sétif", "latitude": "36.191100", "longitude": "5.413700", "population": 1478000, "area": 6504 },
  { "code": "20", "name": "Saïda", "nameAr": "سعيدة", "nameFr": "Saïda", "latitude": "34.830000", "longitude": "0.150000", "population": 334000, "area": 6764 },
  { "code": "21", "name": "Skikda", "nameAr": "سكيكدة", "nameFr": "Skikda", "latitude": "36.866700", "longitude": "6.906700", "population": 904000, "area": 4137 },
  { "code": "22", "name": "Sidi Bel Abbès", "nameAr": "سيدي بلعباس", "nameFr": "Sidi Bel Abbès", "latitude": "35.200000", "longitude": "-0.633333", "population": 604000, "area": 9150 },
  { "code": "23", "name": "Annaba", "nameAr": "عنابة", "nameFr": "Annaba", "latitude": "36.900000", "longitude": "7.766700", "population": 640000, "area": 1439 },
  { "code": "24", "name": "Guelma", "nameAr": "قالمة", "nameFr": "Guelma", "latitude": "36.466700", "longitude": "7.433300", "population": 482000, "area": 4117 },
  { "code": "25", "name": "Constantine", "nameAr": "قسنطينة", "nameFr": "Constantine", "latitude": "36.365000", "longitude": "6.614700", "population": 938000, "area": 2187 },
  { "code": "26", "name": "Médéa", "nameAr": "المدية", "nameFr": "Médéa", "latitude": "36.264400", "longitude": "2.753900", "population": 830000, "area": 8775 },
  { "code": "27", "name": "Mostaganem", "nameAr": "مستغانم", "nameFr": "Mostaganem", "latitude": "35.933300", "longitude": "0.083333", "population": 738000, "area": 2269 },
  { "code": "28", "name": "M'Sila", "nameAr": "المسيلة", "nameFr": "M'Sila", "latitude": "35.700000", "longitude": "4.533300", "population": 990000, "area": 18048 },
  { "code": "29", "name": "Mascara", "nameAr": "معسكر", "nameFr": "Mascara", "latitude": "35.400000", "longitude": "0.140000", "population": 780000, "area": 5941 },
  { "code": "30", "name": "Ouargla", "nameAr": "ورقلة", "nameFr": "Ouargla", "latitude": "31.950000", "longitude": "5.333300", "population": 636000, "area": 163233 },
  { "code": "31", "name": "Oran", "nameAr": "وهران", "nameFr": "Oran", "latitude": "35.696111", "longitude": "-0.633333", "population": 1584607, "area": 2121 },
  { "code": "32", "name": "El Bayadh", "nameAr": "البيض", "nameFr": "El Bayadh", "latitude": "33.683300", "longitude": "1.016700", "population": 262000, "area": 7866 },
  { "code": "33", "name": "Illizi", "nameAr": "إليزي", "nameFr": "Illizi", "latitude": "26.483300", "longitude": "8.466700", "population": 54490, "area": 284618 },
  { "code": "34", "name": "Bordj Bou Arreridj", "nameAr": "برج بوعريريج", "nameFr": "Bordj Bou Arreridj", "latitude": "36.073700", "longitude": "4.763900", "population": 661000, "area": 4115 },
  { "code": "35", "name": "Boumerdès", "nameAr": "بومرداس", "nameFr": "Boumerdès", "latitude": "36.766700", "longitude": "3.716700", "population": 802000, "area": 1566 },
  { "code": "36", "name": "El Tarf", "nameAr": "الطارف", "nameFr": "El Tarf", "latitude": "36.766700", "longitude": "8.066700", "population": 464000, "area": 3339 },
  { "code": "37", "name": "Tindouf", "nameAr": "تندوف", "nameFr": "Tindouf", "latitude": "27.671100", "longitude": "-8.147800", "population": 58193, "area": 159000 },
  { "code": "38", "name": "Tissemsilt", "nameAr": "تيسمسيلت", "nameFr": "Tissemsilt", "latitude": "35.607800", "longitude": "1.811400", "population": 296000, "area": 3151 },
  { "code": "39", "name": "El Oued", "nameAr": "الوادي", "nameFr": "El Oued", "latitude": "33.368300", "longitude": "6.867800", "population": 787000, "area": 5415 },
  { "code": "40", "name": "Khenchela", "nameAr": "خنشلة", "nameFr": "Khenchela", "latitude": "35.435800", "longitude": "7.143900", "population": 483000, "area": 9811 },
  { "code": "41", "name": "Souk Ahras", "nameAr": "سوق أهراس", "nameFr": "Souk Ahras", "latitude": "36.286700", "longitude": "7.951100", "population": 438000, "area": 4365 },
  { "code": "42", "name": "Tipaza", "nameAr": "تيبازة", "nameFr": "Tipaza", "latitude": "36.567800", "longitude": "2.450000", "population": 648000, "area": 2607 },
  { "code": "43", "name": "Mila", "nameAr": "ميلة", "nameFr": "Mila", "latitude": "36.450000", "longitude": "6.264400", "population": 768000, "area": 3482 },
  { "code": "44", "name": "Aïn Defla", "nameAr": "عين الدفلى", "nameFr": "Aïn Defla", "latitude": "36.250000", "longitude": "1.983300", "population": 771000, "area": 4945 },
  { "code": "45", "name": "Naâma", "nameAr": "النعامة", "nameFr": "Naâma", "latitude": "33.266700", "longitude": "-0.316700", "population": 209000, "area": 29950 },
  { "code": "46", "name": "Aïn Témouchent", "nameAr": "عين تموشنت", "nameFr": "Aïn Témouchent", "latitude": "35.297200", "longitude": "-1.140000", "population": 384000, "area": 2376 },
  { "code": "47", "name": "Ghardaïa", "nameAr": "غرداية", "nameFr": "Ghardaïa", "latitude": "32.490000", "longitude": "3.670000", "population": 391000, "area": 8615 },
  { "code": "48", "name": "Relizane", "nameAr": "غليزان", "nameFr": "Relizane", "latitude": "35.737800", "longitude": "0.555600", "population": 733000, "area": 4870 },
  { "code": "49", "name": "Timimoun", "nameAr": "تيميمون", "nameFr": "Timimoun", "latitude": "29.236900", "longitude": "0.230000", "population": 60000, "area": 131220 },
  { "code": "50", "name": "Bordj Badji Mokhtar", "nameAr": "برج باجي مختار", "nameFr": "Bordj Badji Mokhtar", "latitude": "21.327500", "longitude": "0.947500", "population": 16437, "area": 120026 },
  { "code": "51", "name": "Ouled Djellal", "nameAr": "أولاد جلال", "nameFr": "Ouled Djellal", "latitude": "34.416700", "longitude": "4.966700", "population": 70000, "area": 13120 },
  { "code": "52", "name": "Béni Abbès", "nameAr": "بني عباس", "nameFr": "Béni Abbès", "latitude": "30.133300", "longitude": "-2.016700", "population": 50000, "area": 101220 },
  { "code": "53", "name": "In Salah", "nameAr": "عين صالح", "nameFr": "In Salah", "latitude": "27.193900", "longitude": "2.460000", "population": 50000, "area": 131220 },
  { "code": "54", "name": "In Guezzam", "nameAr": "عين قزّام", "nameFr": "In Guezzam", "latitude": "19.566700", "longitude": "5.783300", "population": 10000, "area": 101220 },
  { "code": "55", "name": "Touggourt", "nameAr": "تقرت", "nameFr": "Touggourt", "latitude": "33.100000", "longitude": "6.066700", "population": 200000, "area": 13120 },
  { "code": "56", "name": "Djanet", "nameAr": "جانت", "nameFr": "Djanet", "latitude": "24.554700", "longitude": "9.491700", "population": 50000, "area": 101220 },
  { "code": "57", "name": "El M'Ghair", "nameAr": "المغير", "nameFr": "El M'Ghair", "latitude": "33.950000", "longitude": "5.933300", "population": 70000, "area": 13120 },
  { "code": "58", "name": "El Meniaa", "nameAr": "المنيعة", "nameFr": "El Meniaa", "latitude": "30.583300", "longitude": "2.883300", "population": 60000, "area": 13120 },
  { "code": "59", "name": "Aflou", "nameAr": "أفلو", "nameFr": "Aflou", "latitude": "34.1125", "longitude": "2.1000", "population": 100000, "area": 5000 },
  { "code": "60", "name": "El Abiodh Sidi Cheikh", "nameAr": "الأبيض سيدي الشيخ", "nameFr": "El Abiodh Sidi Cheikh", "latitude": "33.8000", "longitude": "0.5667", "population": 80000, "area": 4000 },
  { "code": "61", "name": "El Aricha", "nameAr": "العريشة", "nameFr": "El Aricha", "latitude": "34.2500", "longitude": "-1.8333", "population": 60000, "area": 3500 },
  { "code": "62", "name": "El Kantara", "nameAr": "القنطرة", "nameFr": "El Kantara", "latitude": "35.3333", "longitude": "5.5500", "population": 70000, "area": 3000 },
  { "code": "63", "name": "Barika", "nameAr": "باريكة", "nameFr": "Barika", "latitude": "35.3897", "longitude": "5.3656", "population": 120000, "area": 3200 },
  { "code": "64", "name": "Bou Saâda", "nameAr": "بوسعادة", "nameFr": "Bou Saâda", "latitude": "35.2083", "longitude": "4.1747", "population": 110000, "area": 3100 },
  { "code": "65", "name": "Bir El Ater", "nameAr": "بئر العاتر", "nameFr": "Bir El Ater", "latitude": "34.7481", "longitude": "8.0603", "population": 90000, "area": 2800 },
  { "code": "66", "name": "Ksar El Boukhari", "nameAr": "قصر البخاري", "nameFr": "Ksar El Boukhari", "latitude": "35.8889", "longitude": "2.7497", "population": 95000, "area": 2700 },
  { "code": "67", "name": "Ksar Chellala", "nameAr": "قصر الشلالة", "nameFr": "Ksar Chellala", "latitude": "35.2172", "longitude": "1.2556", "population": 85000, "area": 2600 },
  { "code": "68", "name": "Aïn Oussara", "nameAr": "عين وسارة", "nameFr": "Aïn Oussara", "latitude": "35.6147", "longitude": "2.8772", "population": 105000, "area": 2500 },
  { "code": "69", "name": "Messaad", "nameAr": "مسعد", "nameFr": "Messaad", "latitude": "34.1542", "longitude": "3.5000", "population": 98000, "area": 2400 }
]